[
  {
    "_id": "333333333333333333333001",
    "name": "Insomnia Coffee Co",
    "type": "cafe",
    "address": "2388 NW Amberbrook Dr",
    "city": "Beaverton",
    "state": "OR ",
    "zipcode": "97006",
    "location": {
      "type": "Point",
      "coordinates": [-122.883890, 45.536223]
    },
    "averageCozyness": 0,
    "averageWarmLighting": 0,
    "averageRelaxedMusic": 0,
    "averageCalmEnvironment": 0,
    "averageSoftFabrics": 0,
    "averageComfySeating": 0,
    "averageHotFoodDrink": 0,
    "photos": ["444444444444444444444001"],
    "ratings": []
  },
  {
    "_id": "333333333333333333333002",
    "name": "The Dragonfly Coffee House",
    "type": "coffee shop",
    "address": "2387 NW Thurman St",
    "city": "Portland",
    "state": "OR",
    "zipcode": "97124",
    "location": {
      "type": "Point",
      "coordinates": [-122.700641, 45.535693]
    },
    "averageCozyness": 0,
    "averageWarmLighting": 0,
    "averageRelaxedMusic": 0,
    "averageCalmEnvironment": 0,
    "averageSoftFabrics": 0,
    "averageComfySeating": 0,
    "averageHotFoodDrink": 0,
    "photos": ["444444444444444444444002"],
    "ratings": []
  },
  {
    "_id": "333333333333333333333003",
    "name": "AVA Roasteria",
    "type": "coffee shop",
    "address": "936 NE Orenco Station Loop",
    "city": "Hillsboro",
    "state": "OR",
    "zipcode": "97124",
    "location": {
      "type": "Point",
      "coordinates": [-122.916230, 45.530457]
    },
    "averageCozyness": 0,
    "averageWarmLighting": 0,
    "averageRelaxedMusic": 0,
    "averageCalmEnvironment": 0,
    "averageSoftFabrics": 0,
    "averageComfySeating": 0,
    "averageHotFoodDrink": 0,
    "photos": ["444444444444444444444003"],
    "ratings": []
  },
  {
    "_id": "333333333333333333333004",
    "name": "Jack Mormon Coffee",
    "type": "cafe",
    "address": "82 E St E",
    "city": "Salt Lake City",
    "state": "UT",
    "zipcode": "84103",
    "location": {
      "type": "Point",
      "coordinates": [-111.877838, 40.77643]
    },
    "averageCozyness": 0,
    "averageWarmLighting": 0,
    "averageRelaxedMusic": 0,
    "averageCalmEnvironment": 0,
    "averageSoftFabrics": 0,
    "averageComfySeating": 0,
    "averageHotFoodDrink": 0,
    "photos": ["444444444444444444444004"],
    "ratings": []
  },
  {
    "_id": "333333333333333333333005",
    "name": "Cafe on 1st",
    "type": "cafe",
    "address": "39 I St",
    "city": "Salt Lake City",
    "state": "UT",
    "zipcode": "84103",
    "location": {
      "type": "Point",
      "coordinates": [-111.871801, 40.770356]
    },
    "averageCozyness": 0,
    "averageWarmLighting": 0,
    "averageRelaxedMusic": 0,
    "averageCalmEnvironment": 0,
    "averageSoftFabrics": 0,
    "averageComfySeating": 0,
    "averageHotFoodDrink": 0,
    "photos": ["444444444444444444444005"],
    "ratings": []
  },
  {
    "_id": "333333333333333333333006",
    "name": "Salt Lake Roasting Co",
    "type": "cafe",
    "address": "820 E 400 S",
    "city": "Salt Lake City",
    "state": "UT",
    "zipcode": "84102",
    "location": {
      "type": "Point",
      "coordinates": [-111.867920, 40.760578]
    },
    "averageCozyness": 0,
    "averageWarmLighting": 0,
    "averageRelaxedMusic": 0,
    "averageCalmEnvironment": 0,
    "averageSoftFabrics": 0,
    "averageComfySeating": 0,
    "averageHotFoodDrink": 0,
    "photos": ["444444444444444444444006"],
    "ratings": []
  },
  {
    "_id": "333333333333333333333007",
    "name": "Java Jo's",
    "type": "cafe",
    "address": "401 1st Ave N",
    "city": "Salt Lake City",
    "state": "UT",
    "zipcode": "84103",
    "location": {
      "type": "Point",
      "coordinates": [-111.877280, 40.770760]
    },
    "averageCozyness": 0,
    "averageWarmLighting": 0,
    "averageRelaxedMusic": 0,
    "averageCalmEnvironment": 0,
    "averageSoftFabrics": 0,
    "averageComfySeating": 0,
    "averageHotFoodDrink": 0,
    "photos": ["444444444444444444444007"],
    "ratings": []
  },
  {
    "_id": "333333333333333333333008",
    "name": "Nostalgia Caf√©",
    "type": "cafe",
    "address": "248 E 100 S",
    "city": "Salt Lake City",
    "state": "UT",
    "zipcode": "84111",
    "location": {
      "type": "Point",
      "coordinates": [-111.883962, 40.767095]
    },
    "averageCozyness": 0,
    "averageWarmLighting": 0,
    "averageRelaxedMusic": 0,
    "averageCalmEnvironment": 0,
    "averageSoftFabrics": 0,
    "averageComfySeating": 0,
    "averageHotFoodDrink": 0,
    "photos": ["444444444444444444444008"],
    "ratings": []
  },
  {
    "_id": "333333333333333333333009",
    "name": "Eve Encinitas",
    "type": "cafe",
    "address": "575 S Coast Hwy. 101",
    "city": "Encinitas",
    "state": "CA",
    "zipcode": "92024",
    "location": {
      "type": "Point",
      "coordinates": [-117.264880, 33.056527]
    },
    "averageCozyness": 0,
    "averageWarmLighting": 0,
    "averageRelaxedMusic": 0,
    "averageCalmEnvironment": 0,
    "averageSoftFabrics": 0,
    "averageComfySeating": 0,
    "averageHotFoodDrink": 0,
    "photos": ["444444444444444444444009"],
    "ratings": []
  },
  {
  "_id": "333333333333333333333010",
  "name": "The 3rd Corner",
  "type": "cafe",
  "address": "897 S. Coast Highway, Ste. F-104",
  "city": "Encinitas",
  "state": "CA",
  "zipcode": "92024",
  "location": {
    "type": "Point",
    "coordinates": [-117.264885, 33.056527]
  },
  "averageCozyness": 0,
  "averageWarmLighting": 0,
  "averageRelaxedMusic": 0,
  "averageCalmEnvironment": 0,
  "averageSoftFabrics": 0,
  "averageComfySeating": 0,
  "averageHotFoodDrink": 0,
  "photos": ["444444444444444444444010"],
  "ratings": []
}
]